{
"type": "FeatureCollection",
"name": "cng_locations_ng",
"crs": { "type": "name", "properties": { "name": "urn:ogc:def:crs:OGC:1.3:CRS84" } },
"features": [
{ "type": "Feature", "properties": { "Address": "Plot 487, Asuquo Okon Street, Daki-Biyu, Jabi District, Abuja.", "State": "FCT", "LGA": "Abuja Municipal Area Council", "Name": "Nigeria Institute of Transport Technology (NITT) Conversion Centre", "google_map_url": "https://maps.google.com/?q=Plot+487%2C+Asuquo+Okon+Street%2C+Daki-Biyu%2C+Jabi+District%2C+Abuja.", "latitude": 9.0589278, "longitude": 7.4294836 }, "geometry": { "type": "Point", "coordinates": [ 7.4294836, 9.0589278 ] } },
{ "type": "Feature", "properties": { "Address": "KM 42, Lekki-Epe Expressway, Majek Second Gate Stop, Abijo Ibeju, Lekki, Lagos", "State": "Lagos", "LGA": "Ibeju-Lekki", "Name": "Femadec Energy Limited Lagos", "google_map_url": "https://maps.google.com/?q=KM+42%2C+Lekki-Epe+Expressway%2C+Majek+Second+Gate+Stop%2C+Abijo+Ibeju%2C+Lekki%2C+Lagos", "latitude": 6.468597, "longitude": 3.7037368 }, "geometry": { "type": "Point", "coordinates": [ 3.7037368, 6.468597 ] } },
{ "type": "Feature", "properties": { "Address": "Plot 16715, Kaduna Abuja Expressway, Kakau Town Kaduna.", "State": "Kaduna", "LGA": "Kaduna North", "Name": "Rolling Energy Limited Kaduna State", "google_map_url": "https://maps.google.com/?q=Plot+16715%2C+Kaduna+Abuja+Expressway%2C+Kakau+Town+Kaduna.", "latitude": 10.503644, "longitude": 7.4337395 }, "geometry": { "type": "Point", "coordinates": [ 7.4337395, 10.503644 ] } },
{ "type": "Feature", "properties": { "Address": "49FJ+G6R Kubwa 901101, Federal Capital Territory (9.119699, 7.379851, Abuja", "State": "FCT", "LGA": "Abuja Municipal Area Council", "Name": "ABG Oil and Gas Limited Abuja", "google_map_url": "https://maps.google.com/?q=49FJ%2BG6R+Kubwa+901101%2C+Federal+Capital+Territory+%289.119699%2C+7.379851%2C+Abuja", "latitude": 9.1238625, "longitude": 7.3805156 }, "geometry": { "type": "Point", "coordinates": [ 7.3805156, 9.1238625 ] } },
{ "type": "Feature", "properties": { "Address": "Basawa Road, Palladan, Zaria, Kaduna Conversion Centre.", "State": "Kaduna", "LGA": "Zaria", "Name": "Nigerian Institute of Transport Technology (NITT) Zaria, Kaduna State", "google_map_url": "https://maps.google.com/?q=Basawa+Road%2C+Palladan%2C+Zaria%2C+Kaduna+Conversion+Centre.", "latitude": 11.1413459, "longitude": 7.6876218 }, "geometry": { "type": "Point", "coordinates": [ 7.6876218, 11.1413459 ] } },
{ "type": "Feature", "properties": { "Address": "Plot 9, Ikola Road Off Command Road, Ipaja, Lagos", "State": "Lagos", "LGA": "Alimosho", "Name": "Automotive Gas Nigeria Services Limited (Auto Gas Nigeria)- Tree of Life Autoworld Limited", "google_map_url": "https://maps.google.com/?q=Plot+9%2C+Ikola+Road+Off+Command+Road%2C+Ipaja%2C+Lagos", "latitude": 6.6196781, "longitude": 3.2560294 }, "geometry": { "type": "Point", "coordinates": [ 3.2560294, 6.6196781 ] } },
{ "type": "Feature", "properties": { "Address": "Gate 2, Ladipo Oluwole Street Off Oba Akran Avenue Ikeja, Lagos", "State": "Lagos", "LGA": "Ikeja", "Name": "Automotive Gas Nigeria Services Limited (Auto Gas Nigeria) - City Mechanic Automobile Limited", "google_map_url": "https://maps.google.com/?q=Gate+2%2C+Ladipo+Oluwole+Street+Off+Oba+Akran+Avenue+Ikeja%2C+Lagos", "latitude": 6.6148306, "longitude": 3.3393152 }, "geometry": { "type": "Point", "coordinates": [ 3.3393152, 6.6148306 ] } },
{ "type": "Feature", "properties": { "Address": "Opposite. MFM Prayercity, Lagos - Ibadan Express Way, Ibafo, Ogun", "State": "Ogun", "LGA": "Abeokuta South", "Name": "NIPCO Gas Limited Ibafo", "google_map_url": "https://maps.google.com/?q=Opposite.+MFM+Prayercity%2C+Lagos+-+Ibadan+Express+Way%2C+Ibafo%2C+Ogun", "latitude": 6.7264037, "longitude": 3.4119811 }, "geometry": { "type": "Point", "coordinates": [ 3.4119811, 6.7264037 ] } },
{ "type": "Feature", "properties": { "Address": "Mobil Filling Station, NR Toll Gate, Ibadan-Lagos Road, Ibadan", "State": "Oyo", "LGA": "Ibarapa Central", "Name": "NIPCO Gas Limited Ibadan", "google_map_url": "https://maps.google.com/?q=Mobil+Filling+Station%2C+NR+Toll+Gate%2C+Ibadan-Lagos+Road%2C+Ibadan", "latitude": 7.3205776, "longitude": 3.8729704 }, "geometry": { "type": "Point", "coordinates": [ 3.8729704, 7.3205776 ] } },
{ "type": "Feature", "properties": { "Address": "Plot 622A, Sabon Lugbe, South-West Layout, Airport Road, FCT Abuja", "State": "FCT", "LGA": "Abuja Municipal Area Council", "Name": "NIPCO Gas Limited Dealer 73", "google_map_url": "https://maps.google.com/?q=Plot+622A%2C+Sabon+Lugbe%2C+South-West+Layout%2C+Airport+Road%2C+FCT+Abuja", "latitude": 8.9589557, "longitude": 7.3358201 }, "geometry": { "type": "Point", "coordinates": [ 7.3358201, 8.9589557 ] } },
{ "type": "Feature", "properties": { "Address": "KM 5, Ikotun Road, Itamope, Ikorodu, Lagos", "State": "Lagos", "LGA": "Ikorodu", "Name": "MBH Power Limited", "google_map_url": "https://maps.google.com/?q=KM+5%2C+Ikotun+Road%2C+Itamope%2C+Ikorodu%2C+Lagos", "latitude": 6.5442722, "longitude": 3.2731275 }, "geometry": { "type": "Point", "coordinates": [ 3.2731275, 6.5442722 ] } },
{ "type": "Feature", "properties": { "Address": "No.1 Ojota Interchange Terminal, Bayo Shodipo, Ojota, Lagos", "State": "Lagos", "LGA": "Kosofe", "Name": "Portland Oil and Gas Lagos", "google_map_url": "https://maps.google.com/?q=No.1+Ojota+Interchange+Terminal%2C+Bayo+Shodipo%2C+Ojota%2C+Lagos", "latitude": 6.5870544, "longitude": 3.378301 }, "geometry": { "type": "Point", "coordinates": [ 3.378301, 6.5870544 ] } },
{ "type": "Feature", "properties": { "Address": "913, Obafemi Awolowo Way, Utako, Abuja", "State": "FCT (Federal Capital Territory)", "LGA": "Abuja Municipal Area Council", "Name": "Portland Oil and Gas, Abuja", "google_map_url": "https://maps.google.com/?q=913%2C+Obafemi+Awolowo+Way%2C+Utako%2C+Abuja+%0D%0A", "latitude": 9.0679396, "longitude": 7.4415218 }, "geometry": { "type": "Point", "coordinates": [ 7.4415218, 9.0679396 ] } },
{ "type": "Feature", "properties": { "Address": "KM 23, Lekki-Epe Express Way, Ajah. Opposite Kilimanjaro, Beside Libmot Motors, by Abraham Adesanya Bus Stop, Lagos", "State": "Lagos", "LGA": "Ibeju-Lekki", "Name": "Mezovest Limited", "google_map_url": "https://maps.google.com/?q=KM+23%2C+Lekki-Epe+Express+Way%2C+Ajah.+Opposite+Kilimanjaro%2C+Beside+Libmot+Motors%2C+by+Abraham+Adesanya+Bus+Stop%2C+Lagos", "latitude": 6.4694152, "longitude": 3.5846184 }, "geometry": { "type": "Point", "coordinates": [ 3.5846184, 6.4694152 ] } },
{ "type": "Feature", "properties": { "Address": "NNPC Service Station (Queen Elizabeth II) Agodi, Ibadan,Oyo", "State": "Oyo", "LGA": "Oyo West", "Name": "Autoclinic Nigeria Solutions Limited", "google_map_url": "https://maps.google.com/?q=NNPC+Service+Station+%28Queen+Elizabeth+II%29+Agodi%2C+Ibadan%2COyo", "latitude": 7.3992915, "longitude": 3.9028816 }, "geometry": { "type": "Point", "coordinates": [ 3.9028816, 7.3992915 ] } },
{ "type": "Feature", "properties": { "Address": "Plot 144B, Gbagada Expressway, Gbagada, Lagos", "State": "Lagos", "LGA": "Kosofe", "Name": "Autogig International Resources Ltd", "google_map_url": "https://maps.google.com/?q=Plot+144B%2C+Gbagada+Expressway%2C+Gbagada%2C+Lagos", "latitude": 6.5513674, "longitude": 3.3918544 }, "geometry": { "type": "Point", "coordinates": [ 3.3918544, 6.5513674 ] } },
{ "type": "Feature", "properties": { "Address": "10B, Olusoji Idowu Street, Ilupeju, Lagos", "State": "Lagos", "LGA": "Lagos Mainland", "Name": "Fixit45 (AutoHub)", "google_map_url": "https://maps.google.com/?q=10B%2C+Olusoji+Idowu+Street%2C+Ilupeju%2C+Lagos", "latitude": 6.5495004, "longitude": 3.3662454 }, "geometry": { "type": "Point", "coordinates": [ 3.3662454, 6.5495004 ] } },
{ "type": "Feature", "properties": { "Address": "Plot 556, Katampe road, Opposite Harmony Court Estate, Jahi, Abuja 900108, Federal Capital Territory (9.105415, 7.448452)", "State": "FCT", "LGA": "Abuja Municipal Area Council", "Name": "Fixit45 (Taharish)", "google_map_url": "https://maps.google.com/?q=Plot+556%2C+Katampe+road%2C+Opposite+Harmony+Court+Estate%2C+Jahi%2C+Abuja+900108%2C+Federal+Capital+Territory+%289.105415%2C+7.448452%29", "latitude": 9.1053327, "longitude": 7.4485992 }, "geometry": { "type": "Point", "coordinates": [ 7.4485992, 9.1053327 ] } },
{ "type": "Feature", "properties": { "Address": "Plot 2, Block 7, Podo Industrial Village, Ibadan", "State": "Oyo", "LGA": "Ibarapa Central", "Name": "Automation Autogas Ltd", "google_map_url": "https://maps.google.com/?q=Plot+2%2C+Block+7%2C+Podo+Industrial+Village%2C+Ibadan", "latitude": 7.3775355, "longitude": 3.9470396 }, "geometry": { "type": "Point", "coordinates": [ 3.9470396, 7.3775355 ] } },
{ "type": "Feature", "properties": { "Address": "Dana Motors Ltd Kia Plaza, 117- Oshodi Apapa Expressway, Isolo, Lagos", "State": "Lagos", "LGA": "Oshodi-Isolo", "Name": "Dana Motors Ltd", "google_map_url": "https://maps.google.com/?q=Dana+Motors+Ltd+Kia+Plaza%2C+117-+Oshodi+Apapa+Expressway%2C+Isolo%2C+Lagos", "latitude": 6.5369901, "longitude": 3.3360729 }, "geometry": { "type": "Point", "coordinates": [ 3.3360729, 6.5369901 ] } },
{ "type": "Feature", "properties": { "Address": "13, Adeleke Kuti Street, Off Cele Bus Stop, Ijede Road, Ikorodu, Lagos", "State": "Lagos", "LGA": "Ikorodu", "Name": "Autogas Africa Logistics Limited (Teekolas Klassic Auto Repairs Limited)", "google_map_url": "https://maps.google.com/?q=13%2C+Adeleke+Kuti+Street%2C+Off+Cele+Bus+Stop%2C+Ijede+Road%2C+Ikorodu%2C+Lagos", "latitude": 6.6262819, "longitude": 3.5482102 }, "geometry": { "type": "Point", "coordinates": [ 3.5482102, 6.6262819 ] } },
{ "type": "Feature", "properties": { "Address": "Phase 3 Felele, Adjacent NNPCL Mega Station, Abuja - Okene Express Way, Lokoja, Kogi.", "State": "Kogi", "LGA": "Okene", "Name": "Mono Energy", "google_map_url": "https://maps.google.com/?q=Phase+3+Felele%2C+Adjacent+NNPCL+Mega+Station%2C+Abuja+-+Okene+Express+Way%2C+Lokoja%2C+Kogi.", "latitude": 7.8023204, "longitude": 6.733343 }, "geometry": { "type": "Point", "coordinates": [ 6.733343, 7.8023204 ] } },
{ "type": "Feature", "properties": { "Address": "Abuja - Keffi Express Road, Koroduma Karu, Nasarawa State", "State": "Nasarawa", "LGA": "Karu", "Name": "ABG Oil and Gas Limited", "google_map_url": "https://maps.google.com/?q=Abuja+-+Keffi+Express+Road%2C+Koroduma+Karu%2C+Nasarawa+State", "latitude": 8.8471213, "longitude": 7.8776023 }, "geometry": { "type": "Point", "coordinates": [ 7.8776023, 8.8471213 ] } },
{ "type": "Feature", "properties": { "Address": "Herbert Macaulay Way, Wuse Zone 5, Abuja", "State": "FCT", "LGA": "Abuja Municipal Area Council", "Name": "Bovas Autogas Conversion Workshop", "google_map_url": "https://maps.google.com/?q=Herbert+Macaulay+Way%2C+Wuse+Zone+5%2C+Abuja", "latitude": 9.0671635, "longitude": 7.4605292 }, "geometry": { "type": "Point", "coordinates": [ 7.4605292, 9.0671635 ] } },
{ "type": "Feature", "properties": { "Address": "No.8, Michibi Road, Off Pandrive, Kakuri Industrial, Kaduna", "State": "Kaduna", "LGA": "Kaduna South", "Name": "Behin - Markpoint", "google_map_url": "https://maps.google.com/?q=No.8%2C+Michibi+Road%2C+Off+Pandrive%2C+Kakuri+Industrial%2C+Kaduna+++++++++++++++++++++++", "latitude": 10.4483598, "longitude": 7.412226 }, "geometry": { "type": "Point", "coordinates": [ 7.412226, 10.4483598 ] } },
{ "type": "Feature", "properties": { "Address": "Plot 102, Opp Azkol Filling Station, Langbansa, Addo off Badore, Ajah, Lagos", "State": "Lagos", "LGA": "Eti Osa", "Name": "Automotive Gas Nigeria Services Limited (Autogas Nigeria)- Jay Technologies Autos Limited", "google_map_url": "https://maps.google.com/?q=Plot+102%2C+Opp+Azkol+Filling+Station%2C+Langbansa%2C+Addo+off+Badore%2C+Ajah%2C+Lagos", "latitude": 6.499006, "longitude": 3.585677 }, "geometry": { "type": "Point", "coordinates": [ 3.585677, 6.499006 ] } },
{ "type": "Feature", "properties": { "Address": "1 Cocoa Industries Road, Akilo Road, Off Ogba, Lagos", "State": "Lagos", "LGA": "Ojo", "Name": "Automotive Gas Nigeria Services Limited (Autogas Nigeria)- Kwenexster Limited", "google_map_url": "https://maps.google.com/?q=1+Cocoa+Industries+Road%2C+Akilo+Road%2C+Off+Ogba%2C+Lagos", "latitude": 6.619403, "longitude": 3.3370519 }, "geometry": { "type": "Point", "coordinates": [ 3.3370519, 6.619403 ] } },
{ "type": "Feature", "properties": { "Address": "PCNGI CENTRAL AREA", "State": "FCT", "LGA": "Municipal Area Council", "Name": "PCNGI", "google_map_url": "https://maps.google.com/?q=PCNGI+CENTRAL+AREA", "latitude": 9.0568646, "longitude": 7.4819107 }, "geometry": { "type": "Point", "coordinates": [ 7.4819107, 9.0568646 ] } },
{ "type": "Feature", "properties": { "Address": "Suleja - Zuba Road, Abuja", "State": "FCT", "LGA": "Gwagwalada", "Name": "Behin - Markpoint", "google_map_url": "https://maps.google.com/?q=Suleja+-+Zuba+Road%2C+Abuja%0D%0A", "latitude": 8.9489537, "longitude": 7.4466744 }, "geometry": { "type": "Point", "coordinates": [ 7.4466744, 8.9489537 ] } },
{ "type": "Feature", "properties": { "Address": "Ajibode Retail Outlet, Along U.I. Ojo Road, Ibadan", "State": "Oyo", "LGA": "Ibadan North-West", "Name": "Bovas Oyo", "google_map_url": "https://maps.google.com/?q=Ajibode+Retail+Outlet%2C+Along+U.I.+Ojo+Road%2C+Ibadan%0D%0A", "latitude": 7.4596625, "longitude": 3.9131736 }, "geometry": { "type": "Point", "coordinates": [ 3.9131736, 7.4596625 ] } },
{ "type": "Feature", "properties": { "Address": "NCWS Complex, Beside Hexagon, Along Sango U.I Road, Samonda, Ibadan", "State": "Oyo", "LGA": "Ibadan North-East", "Name": "Autogas Africa Logistics Limited (Autotel Automotive Solutions)", "google_map_url": "https://maps.google.com/?q=NCWS+Complex%2C+Beside+Hexagon%2C+Along+Sango+U.I+Road%2C+Samonda%2C+Ibadan%0D%0A", "latitude": 7.432596, "longitude": 3.9063488 }, "geometry": { "type": "Point", "coordinates": [ 3.9063488, 7.432596 ] } },
{ "type": "Feature", "properties": { "Address": "Motor Transport Maintenance Yard, University of Ibadan, Oyo State", "State": "Oyo", "LGA": "Ibadan North", "Name": "Autogas Africa Logistics Limited (His Divine Favour Automobile Technologies)", "google_map_url": "https://maps.google.com/?q=Motor+Transport+Maintenance+Yard%2C+University+of+Ibadan%2C+Oyo+State%0D%0A", "latitude": 7.3775355, "longitude": 3.9470396 }, "geometry": { "type": "Point", "coordinates": [ 3.9470396, 7.3775355 ] } },
{ "type": "Feature", "properties": { "Address": "Mobile House Idiroko Road, Obasanjo Bus Stop Sango-Ota", "State": "Ogun", "LGA": "Ado-Odo/Ota", "Name": "Ade - Dam Auto Solutions", "google_map_url": "https://maps.google.com/?q=Mobile+House+Idiroko+Road%2C+Obasanjo+Bus+Stop+Sango-Ota%0D%0A", "latitude": 6.6822458, "longitude": 3.1922085 }, "geometry": { "type": "Point", "coordinates": [ 3.1922085, 6.6822458 ] } },
{ "type": "Feature", "properties": { "Address": "37 Olorunsogo , Abiola Way, Abeokuta", "State": "Ogun", "LGA": "Abeokuta North", "Name": "Nexgen Automotive Repair", "google_map_url": "https://maps.google.com/?q=37+Olorunsogo+%2C+Abiola+Way%2C+Abeokuta%0D%0A", "latitude": 7.1570518, "longitude": 3.3679448 }, "geometry": { "type": "Point", "coordinates": [ 3.3679448, 7.1570518 ] } },
{ "type": "Feature", "properties": { "Address": "OPIC Building OPIC Roundabout, Ibara, Abeokuta, Ogun State", "State": "Ogun", "LGA": "Abeokuta North", "Name": "Nigerian Gas Transport Solutions", "google_map_url": "https://maps.google.com/?q=OPIC+Building+OPIC+Roundabout%2C+Ibara%2C+Abeokuta%2C+Ogun+State%0D%0A", "latitude": 7.134663, "longitude": 3.339551 }, "geometry": { "type": "Point", "coordinates": [ 3.339551, 7.134663 ] } },
{ "type": "Feature", "properties": { "Address": "SBN Compound, Plot 9, Block A Surulere Industrial State, Ikeja, Lagos", "State": "Lagos", "LGA": "Ikeja", "Name": "Black White Energy", "google_map_url": "https://maps.google.com/?q=SBN+Compound%2C+Plot+9%2C+Block+A+Surulere+Industrial+State%2C+Ikeja%2C+Lagos+%0D%0A", "latitude": 6.498293, "longitude": 3.348572 }, "geometry": { "type": "Point", "coordinates": [ 3.348572, 6.498293 ] } },
{ "type": "Feature", "properties": { "Address": "Beside Dunamis Church International Lugbe Airport Road", "State": "FCT", "LGA": "Municipal Area Council", "Name": "Autogas Africa Logistics Limited (Simço Auto Diagnosis And Repair Centre)", "google_map_url": "https://maps.google.com/?q=Beside+Dunamis+Church+International+Lugbe+Airport+Road", "latitude": 8.9665332, "longitude": 7.3446651 }, "geometry": { "type": "Point", "coordinates": [ 7.3446651, 8.9665332 ] } },
{ "type": "Feature", "properties": { "Address": "Plot 558, Katampe Road, Jahi District, Abuja", "State": "FCT", "LGA": "Municipal Area Council", "Name": "Autogas Africa Logistics Limited (Triple D Auto Place)", "google_map_url": "https://maps.google.com/?q=Plot+558%2C+Katampe+Road%2C+Jahi+District%2C+Abuja", "latitude": 9.105986, "longitude": 7.4491803 }, "geometry": { "type": "Point", "coordinates": [ 7.4491803, 9.105986 ] } },
{ "type": "Feature", "properties": { "Address": "NNPC filling station, Opposite Dunamis Church Lugbe airport road,  Abuja", "State": "FCT", "LGA": "Municipal Area Council", "Name": "Automobiles R Us Nig Ltd (ARUS)", "google_map_url": "https://maps.google.com/?q=NNPC+filling+station%2C+Opposite+Dunamis+Church+Lugbe+airport+road%2C++Abuja", "latitude": null, "longitude": null }, "geometry": null },
{ "type": "Feature", "properties": { "Address": "Plot 1155, 69 Road, Gwarinpa Estate, 9000108 Opp House 10 FCT Abuja", "State": "FCT", "LGA": "Municipal Area Council", "Name": "Automotive Gas Nigeria Services Limited (Autogas Nigeria)- Aaz Autocare Limited", "google_map_url": "https://maps.google.com/?q=Plot+1155%2C+69+Road%2C+Gwarinpa+Estate%2C+9000108+Opp+House+10+FCT+Abuja", "latitude": 9.1193615, "longitude": 7.3830244 }, "geometry": { "type": "Point", "coordinates": [ 7.3830244, 9.1193615 ] } },
{ "type": "Feature", "properties": { "Address": "Plot 92, CAD Zone B15, Behind Mabushi Ultramodern Market, Katempe Road, Jahi District Abuja", "State": "FCT", "LGA": "Municipal Area Council", "Name": "Automotive Gas Nigeria Services Limited (Autogas Nigeria)- Auto Spa", "google_map_url": "https://maps.google.com/?q=Plot+92%2C+CAD+Zone+B15%2C+Behind+Mabushi+Ultramodern+Market%2C+Katempe+Road%2C+Jahi+District+Abuja", "latitude": 9.1068175, "longitude": 7.4476008 }, "geometry": { "type": "Point", "coordinates": [ 7.4476008, 9.1068175 ] } },
{ "type": "Feature", "properties": { "Address": "Plot PFS 5, Kubwa Expressway Kubwa", "State": "FCT", "LGA": "Municipal Area Council", "Name": "Automotive Gas Nigeria Services Limited (Autogas Nigeria)-Esides Auto Care Limited", "google_map_url": "https://maps.google.com/?q=Plot+PFS+5%2C+Kubwa+Expressway+Kubwa", "latitude": 9.1538486, "longitude": 7.3219648 }, "geometry": { "type": "Point", "coordinates": [ 7.3219648, 9.1538486 ] } },
{ "type": "Feature", "properties": { "Address": "Plot 954, David Ejoor Crescent, Opp Emerald Court, Apo FCT, Abuja", "State": "FCT", "LGA": "Municipal Area Council", "Name": "Automotive Gas Nigeria Services Limited (Autogas Nigeria)- Exotic Multi Synergy", "google_map_url": "https://maps.google.com/?q=Plot+954%2C+David+Ejoor+Crescent%2C+Opp+Emerald+Court%2C+Apo+FCT%2C+Abuja", "latitude": 9.0158742, "longitude": 7.4719847 }, "geometry": { "type": "Point", "coordinates": [ 7.4719847, 9.0158742 ] } },
{ "type": "Feature", "properties": { "Address": "Plot 221 Martins Ejembi Crescent, Apo Dutse, Abuja", "State": "FCT", "LGA": "Municipal Area Council", "Name": "Automotive Gas Nigeria Services Limited (Autogas Nigeria)- Smartcog Auto Service Centre", "google_map_url": "https://maps.google.com/?q=Plot+221+Martins+Ejembi+Crescent%2C+Apo+Dutse%2C+Abuja", "latitude": 8.9878673, "longitude": 7.49216 }, "geometry": { "type": "Point", "coordinates": [ 7.49216, 8.9878673 ] } },
{ "type": "Feature", "properties": { "Address": "Alhaji Umaru Ngelzarma(AUN) Petrol Station, Lokogoma, Abuja", "State": "FCT", "LGA": "Municipal Area Council", "Name": "C & L Smartenergy Solutions Nig. Ltd", "google_map_url": "https://maps.google.com/?q=Alhaji+Umaru+Ngelzarma%28AUN%29+Petrol+Station%2C+Lokogoma%2C+Abuja", "latitude": 8.9690334, "longitude": 7.4639081 }, "geometry": { "type": "Point", "coordinates": [ 7.4639081, 8.9690334 ] } },
{ "type": "Feature", "properties": { "Address": "Plot C15 Sabon Lugbe by Wood and Frame, Airport Road Abuja, (8.946516, 7.328978)", "State": "FCT", "LGA": "Municipal Area Council", "Name": "Cng Tech/ Zitaj Automobile", "google_map_url": "https://maps.google.com/?q=Plot+C15+Sabon+Lugbe+by+Wood+and+Frame%2C+Airport+Road+Abuja%2C+%288.946516%2C+7.328978%29", "latitude": 9.0015813, "longitude": 7.4108297 }, "geometry": { "type": "Point", "coordinates": [ 7.4108297, 9.0015813 ] } },
{ "type": "Feature", "properties": { "Address": "Calypso Garden, Sokono st, off Adetokunbo Ademola Wuse 2, Abuja", "State": "FCT", "LGA": "Municipal Area Council", "Name": "Diametrics Limited", "google_map_url": "https://maps.google.com/?q=Calypso+Garden%2C+Sokono+st%2C+off+Adetokunbo+Ademola+Wuse+2%2C+Abuja", "latitude": 9.078749, "longitude": 7.4701862 }, "geometry": { "type": "Point", "coordinates": [ 7.4701862, 9.078749 ] } },
{ "type": "Feature", "properties": { "Address": "20, Orogbum Cresent GRA Phase 2 Port Harcourt, Rivers State", "State": "Rivers", "LGA": "Port Harcourt", "Name": "Femadec Energy Rivers", "google_map_url": "https://maps.google.com/?q=20%2C+Orogbum+Cresent+GRA+Phase+2+Port+Harcourt%2C+Rivers+State", "latitude": 4.8165407, "longitude": 6.9982888 }, "geometry": { "type": "Point", "coordinates": [ 6.9982888, 4.8165407 ] } },
{ "type": "Feature", "properties": { "Address": "Plot 38, Stadium Road - Rumuola Link Road, Adjacent NNPC station, Port Harcourt, Rivers State.", "State": "Rivers", "LGA": "Port Harcourt", "Name": "Femadec Energy Rivers", "google_map_url": "https://maps.google.com/?q=Plot+38%2C+Stadium+Road+-+Rumuola+Link+Road%2C+Adjacent+NNPC+station%2C+Port+Harcourt%2C+Rivers+State.", "latitude": 4.8318809, "longitude": 7.0150438 }, "geometry": { "type": "Point", "coordinates": [ 7.0150438, 4.8318809 ] } },
{ "type": "Feature", "properties": { "Address": "1, Prof Olagoke Olabisi, off Folashade Ave, Lekki Peninsular, Lagos.", "State": "Lagos", "LGA": "Ibeju-Lekki", "Name": "Fix It N Go", "google_map_url": "https://maps.google.com/?q=1%2C+Prof+Olagoke+Olabisi%2C+off+Folashade+Ave%2C+Lekki+Peninsular%2C+Lagos.", "latitude": 6.4266965, "longitude": 3.4706645 }, "geometry": { "type": "Point", "coordinates": [ 3.4706645, 6.4266965 ] } },
{ "type": "Feature", "properties": { "Address": "143, Obafemi Awolowo Road, Ikorodu, Lagos", "State": "Lagos", "LGA": "Ikorodu", "Name": "Fixit45 Lagos", "google_map_url": "https://maps.google.com/?q=143%2C+Obafemi+Awolowo+Road%2C+Ikorodu%2C+Lagos", "latitude": 6.6289129, "longitude": 3.5309303 }, "geometry": { "type": "Point", "coordinates": [ 3.5309303, 6.6289129 ] } },
{ "type": "Feature", "properties": { "Address": "Plot PFS 5, Kubwa Express Way Opp. Second Gate, NNPC Juncton Kubwa, FCT-Abuja (9.140247, 7.321147)", "State": "FCT", "LGA": "Municipal Area Council", "Name": "Fixit45 Abuja", "google_map_url": "https://maps.google.com/?q=Plot+PFS+5%2C+Kubwa+Express+Way+Opp.+Second+Gate%2C+NNPC+Juncton+Kubwa%2C+FCT-Abuja+%289.140247%2C+7.321147%29", "latitude": 9.1538486, "longitude": 7.3219648 }, "geometry": { "type": "Point", "coordinates": [ 7.3219648, 9.1538486 ] } },
{ "type": "Feature", "properties": { "Address": "A.Y.M Ashafa Petrol Station Plot 968 Wuye behind Family Worship Center, Wuye District, FCT ABUJA", "State": "FCT", "LGA": "Municipal Area Council", "Name": "Galembic Int’l Ltd", "google_map_url": "https://maps.google.com/?q=A.Y.M+Ashafa+Petrol+Station+Plot+968+Wuye+behind+Family+Worship+Center%2C+Wuye+District%2C+FCT+ABUJA", "latitude": 9.05165, "longitude": 7.4449701 }, "geometry": { "type": "Point", "coordinates": [ 7.4449701, 9.05165 ] } },
{ "type": "Feature", "properties": { "Address": "Plot 1071, Behind NASENI Idu Industrial Area, Abuja, FCT", "State": "FCT", "LGA": "Municipal Area Council", "Name": "Grid7 Ltd", "google_map_url": "https://maps.google.com/?q=Plot+1071%2C+Behind+NASENI+Idu+Industrial+Area%2C+Abuja%2C+FCT", "latitude": 9.0659002, "longitude": 7.3411961 }, "geometry": { "type": "Point", "coordinates": [ 7.3411961, 9.0659002 ] } },
{ "type": "Feature", "properties": { "Address": "Km 7 Benin Auchi Rd, Adjacent Zafike Hotel, Eyaen, Benin City", "State": "Edo", "LGA": "Uhunmwonde", "Name": "Nipco Gas Ltd Eyean", "google_map_url": "https://maps.google.com/?q=Km+7+Benin+Auchi+Rd%2C+Adjacent+Zafike+Hotel%2C+Eyaen%2C+Benin+City", "latitude": 6.3740425, "longitude": 5.6931726 }, "geometry": { "type": "Point", "coordinates": [ 5.6931726, 6.3740425 ] } },
{ "type": "Feature", "properties": { "Address": "Ku Plaza, Benin Sapele Rd, Opposite Pz Junction, Benin City", "State": "Edo", "LGA": "Uhunmwonde", "Name": "Nipco Gas Ltd Sapele Road", "google_map_url": "https://maps.google.com/?q=Ku+Plaza%2C+Benin+Sapele+Rd%2C+Opposite+Pz+Junction%2C+Benin+City", "latitude": 6.334986, "longitude": 5.6037465 }, "geometry": { "type": "Point", "coordinates": [ 5.6037465, 6.334986 ] } },
{ "type": "Feature", "properties": { "Address": "Warri-Sapele Rd, Okolovu", "State": "Delta", "LGA": "Sapele", "Name": "Nipco Gas Ltd Warri", "google_map_url": "https://maps.google.com/?q=Warri-Sapele+Rd%2C+Okolovu", "latitude": 5.7216992, "longitude": 5.7558448 }, "geometry": { "type": "Point", "coordinates": [ 5.7558448, 5.7216992 ] } },
{ "type": "Feature", "properties": { "Address": "Kwara Express, FH5G+3R5, Muritala Muhammed Way Ilorin 240101, Kwara State.", "State": "Kwara", "LGA": "Ilorin West", "Name": "Rolling Energy Limited Kwara State", "google_map_url": "https://maps.google.com/?q=Kwara+Express%2C+FH5G%2B3R5%2C+Muritala+Muhammed+Way+Ilorin+240101%2C+Kwara+State.", "latitude": 8.4576292, "longitude": 4.577124 }, "geometry": { "type": "Point", "coordinates": [ 4.577124, 8.4576292 ] } },
{ "type": "Feature", "properties": { "Address": "Plot 410 Cadastral zone, Opp NNPC Filling Station Airport Junction  Jabi (9.06413, 7.41222)", "State": "FCT", "LGA": "Municipal Area Council", "Name": "Rt Briscoe Nigeria Plc Abuja", "google_map_url": "https://maps.google.com/?q=Plot+410+Cadastral+zone%2C+Opp+NNPC+Filling+Station+Airport+Junction++Jabi+%289.06413%2C+7.41222%29", "latitude": null, "longitude": null }, "geometry": null },
{ "type": "Feature", "properties": { "Address": "By AFDIN Filling Station, opp House on the rock church. Airport road ABUJA.  (9.029803, 7.437156)", "State": "FCT", "LGA": "Municipal Area Council", "Name": "Salma Auto", "google_map_url": "https://maps.google.com/?q=By+AFDIN+Filling+Station%2C+opp+House+on+the+rock+church.+Airport%C2%A0road%C2%A0ABUJA.++%289.029803%2C+7.437156%29", "latitude": null, "longitude": null }, "geometry": null },
{ "type": "Feature", "properties": { "Address": "Rumuokwurusi, Elelenwa Port Harcourt, Rivers State.", "State": "Rivers", "LGA": "Port Harcourt", "Name": "Total Support", "google_map_url": "https://maps.google.com/?q=Rumuokwurusi%2C+Elelenwa+Port+Harcourt%2C+Rivers+State.", "latitude": 4.8554141, "longitude": 7.0538774 }, "geometry": { "type": "Point", "coordinates": [ 7.0538774, 4.8554141 ] } },
{ "type": "Feature", "properties": { "Address": "KM 25 Lekki-Epe Expressway, Okoafo, Lagos", "State": "Lagos", "LGA": "Badagry", "Name": "Automotive Gas Nigeria Services Limited (Autogas Nigeria)- Formula 1Autozone Nigeria Limited", "google_map_url": "https://maps.google.com/?q=KM+25+Lekki-Epe+Expressway%2C+Okoafo%2C+Lagos", "latitude": 6.436997, "longitude": 3.5096198 }, "geometry": { "type": "Point", "coordinates": [ 3.5096198, 6.436997 ] } },
{ "type": "Feature", "properties": { "Address": "Airport Road by Airport Gate Benin City", "State": "Edo", "LGA": "Esan Central", "Name": "Automotive Gas Nigeria Services Limited (Autogas Nigeria)- See-Auto Workshop", "google_map_url": "https://maps.google.com/?q=Airport+Road+by+Airport+Gate+Benin+City", "latitude": 6.334986, "longitude": 5.6037465 }, "geometry": { "type": "Point", "coordinates": [ 5.6037465, 6.334986 ] } },
{ "type": "Feature", "properties": { "Address": "Capital territory City Gate, Benin Onitsha Expressway, Azagba-Ogwashi/Issele-Azagba, Asaba", "State": "Delta", "LGA": "Aniocha South", "Name": "Automotive Gas Nigeria Services Limited (Autogas Nigeria)- Autolubricity Nigeria Limited", "google_map_url": "https://maps.google.com/?q=Capital+territory+City+Gate%2C+Benin+Onitsha+Expressway%2C+Azagba-Ogwashi%2FIssele-Azagba%2C+Asaba", "latitude": 6.334986, "longitude": 5.6037465 }, "geometry": { "type": "Point", "coordinates": [ 5.6037465, 6.334986 ] } },
{ "type": "Feature", "properties": { "Address": "AUST retail outlet, along Airport road, Abuja, FCT", "State": "FCT", "LGA": "Abaji", "Name": "Bovas Abuja", "google_map_url": "https://maps.google.com/?q=AUST+retail+outlet%2C+along+Airport+road%2C+Abuja%2C+FCT", "latitude": 9.000923, "longitude": 7.4220002 }, "geometry": { "type": "Point", "coordinates": [ 7.4220002, 9.000923 ] } },
{ "type": "Feature", "properties": { "Address": "Wuse retail outlet, Wuse road, Abuja, FCT", "State": "FCT", "LGA": "Municipal Area Council", "Name": "Bovas Abuja", "google_map_url": "https://maps.google.com/?q=Wuse+retail+outlet%2C+Wuse+road%2C+Abuja%2C+FCT", "latitude": 9.0752322, "longitude": 7.4767315 }, "geometry": { "type": "Point", "coordinates": [ 7.4767315, 9.0752322 ] } },
{ "type": "Feature", "properties": { "Address": "Summit Road by Havilla Rd junction, Asaba", "State": "Delta", "LGA": "Aniocha North", "Name": "Rt Briscoe Nigeria Plc Delta", "google_map_url": "https://maps.google.com/?q=Summit+Road+by+Havilla+Rd+junction%2C+Asaba", "latitude": 6.2059295, "longitude": 6.6958939 }, "geometry": { "type": "Point", "coordinates": [ 6.6958939, 6.2059295 ] } },
{ "type": "Feature", "properties": { "Address": "54, Ikotun Idimu Road, NNPC Petrol Station Opp Chicken Republic, Ikotun", "State": "Lagos", "LGA": "Ikeja", "Name": "Automotive Gas Nigeria Services Limited (AUTOGAS NIGERIA)- Universal Automotive Training Academy", "google_map_url": "https://maps.google.com/?q=54%2C+Ikotun+Idimu+Road%2C+NNPC+Petrol+Station+Opp+Chicken+Republic%2C+Ikotun", "latitude": 6.5505616, "longitude": 3.2683888 }, "geometry": { "type": "Point", "coordinates": [ 3.2683888, 6.5505616 ] } },
{ "type": "Feature", "properties": { "Address": "105 Benin-Agbor Road, Ikpoba Hill, Benin City, Edo State", "State": "Edo", "LGA": "Esan Central", "Name": "Kojo Motors Limited Edo", "google_map_url": "https://maps.google.com/?q=105+Benin-Agbor+Road%2C+Ikpoba+Hill%2C+Benin+City%2C+Edo+State", "latitude": 6.3471743, "longitude": 5.6743549 }, "geometry": { "type": "Point", "coordinates": [ 5.6743549, 6.3471743 ] } },
{ "type": "Feature", "properties": { "Address": "Plot 1504, Cadzone BO6, after Ministry of Transportation, Mabushi, FCT, Abuja", "State": "FCT", "LGA": "Municipal Area Council", "Name": "Lanre Shittu Motors Ng Ltd", "google_map_url": "https://maps.google.com/?q=Plot+1504%2C+Cadzone+BO6%2C+after+Ministry+of+Transportation%2C+Mabushi%2C+FCT%2C+Abuja+", "latitude": 9.0830863, "longitude": 7.4481568 }, "geometry": { "type": "Point", "coordinates": [ 7.4481568, 9.0830863 ] } },
{ "type": "Feature", "properties": { "Address": "\"Truck Centre, Lagos. Plot C88 Amuwo Odofin Commercial Coker Bus-Stop, Oshodi Apapa Expressway \r\n  \"", "State": "Lagos", "LGA": "Oshodi-Isolo", "Name": "Lanre Shittu Motors Nigeria Limited", "google_map_url": "https://maps.google.com/?q=%22Truck+Centre%2C+Lagos.+Plot+C88+Amuwo+Odofin+Commercial+Coker+Bus-Stop%2C+Oshodi+Apapa+Expressway+%0D%0A++%22", "latitude": null, "longitude": null }, "geometry": null },
{ "type": "Feature", "properties": { "Address": "Ado-Ekiti/ KM5 Ilawe Road, Near Fresh Water International School, Ado Ekiti", "State": "Ekiti", "LGA": "Ado Ekiti", "Name": "National Automotive Design and Development Council Automotive Training Center - Ado Ekiti", "google_map_url": "https://maps.google.com/?q=Ado-Ekiti%2F+KM5+Ilawe+Road%2C+Near+Fresh+Water+International+School%2C+Ado+Ekiti+", "latitude": 7.6185974, "longitude": 5.2004966 }, "geometry": { "type": "Point", "coordinates": [ 5.2004966, 7.6185974 ] } },
{ "type": "Feature", "properties": { "Address": "Mandilas Building, 35 Simpson Street, Lagos Island", "State": "Lagos", "LGA": "Lagos Island", "Name": "Ibile Oil & Gas - Mandilas Group", "google_map_url": "https://maps.google.com/?q=Mandilas+Building%2C+35+Simpson+Street%2C+Lagos+Island", "latitude": 6.4532779, "longitude": 3.4023004 }, "geometry": { "type": "Point", "coordinates": [ 3.4023004, 6.4532779 ] } },
{ "type": "Feature", "properties": { "Address": "1, Prof Olagoke Olabisi, Off Folashade Awe, Oniru, Lekki", "State": "Lagos", "LGA": "Lagos Mainland", "Name": "Automatic Fit and Energy Limited", "google_map_url": "https://maps.google.com/?q=1%2C+Prof+Olagoke+Olabisi%2C+Off+Folashade+Awe%2C+Oniru%2C+Lekki", "latitude": 6.4266965, "longitude": 3.4706645 }, "geometry": { "type": "Point", "coordinates": [ 3.4706645, 6.4266965 ] } },
{ "type": "Feature", "properties": { "Address": "68A Adeola Odeku St, Victoria Island", "State": "Lagos", "LGA": "Eti-Osa", "Name": "Ibile Oil & Gas - Coscharis Motors Limited", "google_map_url": "https://maps.google.com/?q=68A+Adeola+Odeku+St%2C+Victoria+Island", "latitude": 6.4262524, "longitude": 3.4235394 }, "geometry": { "type": "Point", "coordinates": [ 3.4235394, 6.4262524 ] } },
{ "type": "Feature", "properties": { "Address": "129, Bode Thomas Street, Surulere,", "State": "Lagos", "LGA": "Surulere", "Name": "Ibile Oil & Gas - Ayo-ola Motor Ltd", "google_map_url": "https://maps.google.com/?q=129%2C+Bode+Thomas+Street%2C+Surulere%2C", "latitude": 6.4886989, "longitude": 3.3605401 }, "geometry": { "type": "Point", "coordinates": [ 3.3605401, 6.4886989 ] } },
{ "type": "Feature", "properties": { "Address": "Truckmasters Close, Opebi", "State": "Lagos", "LGA": "Ikeja", "Name": "Ibile Oil & Gas - Truck Masters Limited", "google_map_url": "https://maps.google.com/?q=Truckmasters+Close%2C+Opebi", "latitude": 6.5941081, "longitude": 3.3658616 }, "geometry": { "type": "Point", "coordinates": [ 3.3658616, 6.5941081 ] } },
{ "type": "Feature", "properties": { "Address": "Plot 18, Muri Folami Street, Ogudu GRA", "State": "Lagos", "LGA": "Kosofe", "Name": "Ibile Oil & Gas - Memda Automobile Turnup & Service", "google_map_url": "https://maps.google.com/?q=Plot+18%2C+Muri+Folami+Street%2C+Ogudu+GRA%0D%0A", "latitude": 6.5747896, "longitude": 3.3864296 }, "geometry": { "type": "Point", "coordinates": [ 3.3864296, 6.5747896 ] } },
{ "type": "Feature", "properties": { "Address": "KM 15, Ikorodu Road", "State": "Lagos", "LGA": "Ikorodu", "Name": "Ibile Oil & Gas - GAC Motor", "google_map_url": "https://maps.google.com/?q=KM+15%2C+Ikorodu+Road%0D%0A", "latitude": 6.5185168, "longitude": 3.367599 }, "geometry": { "type": "Point", "coordinates": [ 3.367599, 6.5185168 ] } },
{ "type": "Feature", "properties": { "Address": "Plot 4, Muri Folami Street, Ogudu GRA", "State": "Lagos", "LGA": "Kosofe", "Name": "Ibile Oil & Gas - HN Auto Center", "google_map_url": "https://maps.google.com/?q=Plot+4%2C+Muri+Folami+Street%2C+Ogudu+GRA%0D%0A", "latitude": 6.5769434, "longitude": 3.3900504 }, "geometry": { "type": "Point", "coordinates": [ 3.3900504, 6.5769434 ] } },
{ "type": "Feature", "properties": { "Address": "Plot A2, Billings Way, Oregun – Ikeja", "State": "Lagos", "LGA": "Ikeja", "Name": "Ibile Oil & Gas - Car Max Auto Centre", "google_map_url": "https://maps.google.com/?q=Plot+A2%2C+Billings+Way%2C+Oregun+%E2%80%93+Ikeja%0D%0A", "latitude": null, "longitude": null }, "geometry": null },
{ "type": "Feature", "properties": { "Address": "307,Akin Adesola Victoria island", "State": "Lagos", "LGA": "Lagos Island", "Name": "CFAO", "google_map_url": "https://maps.google.com/?q=307%2CAkin+Adesola+Victoria+island+", "latitude": 6.4307964, "longitude": 3.423898 }, "geometry": { "type": "Point", "coordinates": [ 3.423898, 6.4307964 ] } },
{ "type": "Feature", "properties": { "Address": "43A Akin Adesola Street, Victoria island", "State": "Lagos", "LGA": "Lagos Island", "Name": "Carbon Care", "google_map_url": "https://maps.google.com/?q=43A+Akin+Adesola+Street%2C+Victoria+island", "latitude": 6.4314021, "longitude": 3.4236347 }, "geometry": { "type": "Point", "coordinates": [ 3.4236347, 6.4314021 ] } },
{ "type": "Feature", "properties": { "Address": "2 Wharf Road, Apapa", "State": "Lagos", "LGA": "Apapa", "Name": "AG Leventis Nigeria LTD.", "google_map_url": "https://maps.google.com/?q=2+Wharf+Road%2C+Apapa", "latitude": 6.445092, "longitude": 3.3731852 }, "geometry": { "type": "Point", "coordinates": [ 3.3731852, 6.445092 ] } },
{ "type": "Feature", "properties": { "Address": "19/21 Oregun Road, Olusosun, Ikeja", "State": "Lagos", "LGA": "Ikeja", "Name": "Skoda Automobile Nigeria LTD.", "google_map_url": "https://maps.google.com/?q=19%2F21+Oregun+Road%2C+Olusosun%2C+Ikeja+", "latitude": 6.6070693, "longitude": 3.366604 }, "geometry": { "type": "Point", "coordinates": [ 3.366604, 6.6070693 ] } },
{ "type": "Feature", "properties": { "Address": "Plot 3 Billings way, Industrial Estate Road, Oregun, Ikeja", "State": "Lagos", "LGA": "Ikeja", "Name": "ASSI & KACHEF Auto services", "google_map_url": "https://maps.google.com/?q=Plot+3+Billings+way%2C+Industrial+Estate+Road%2C+Oregun%2C+Ikeja", "latitude": 6.6030547, "longitude": 3.3692734 }, "geometry": { "type": "Point", "coordinates": [ 3.3692734, 6.6030547 ] } },
{ "type": "Feature", "properties": { "Address": "35C Adetokunbo Ademola Street, Victoria Island", "State": "Lagos", "LGA": "Lagos Island", "Name": "Arrowhead Automobile", "google_map_url": "https://maps.google.com/?q=35C+Adetokunbo+Ademola+Street%2C+Victoria+Island+", "latitude": 6.4299742, "longitude": 3.4302141 }, "geometry": { "type": "Point", "coordinates": [ 3.4302141, 6.4299742 ] } },
{ "type": "Feature", "properties": { "Address": "Plot 21 Admiralty Way, Lekki Phase 1,Lagos", "State": "Lagos", "LGA": "Ibeju-Lekki", "Name": "Citiwebb Auto Centre", "google_map_url": "https://maps.google.com/?q=Plot+21+Admiralty+Way%2C+Lekki+Phase+1%2CLagos", "latitude": 6.4480905, "longitude": 3.4742881 }, "geometry": { "type": "Point", "coordinates": [ 3.4742881, 6.4480905 ] } },
{ "type": "Feature", "properties": { "Address": "4th Roundabout Lekki -Epe Express-way, Lagoss", "State": "Lagos", "LGA": "Epe", "Name": "Germaine Auto centre limited", "google_map_url": "https://maps.google.com/?q=4th+Roundabout+Lekki+-Epe+Express-way%2C+Lagoss", "latitude": 6.4359434, "longitude": 3.4466647 }, "geometry": { "type": "Point", "coordinates": [ 3.4466647, 6.4359434 ] } },
{ "type": "Feature", "properties": { "Address": "Government Technical College Ikotun", "State": "Lagos", "LGA": "Alimosho", "Name": "Ibile Oil & Gas - Lagos State Technical & Vocational Education Board", "google_map_url": "https://maps.google.com/?q=Government+Technical+College+Ikotun+", "latitude": 6.5529605, "longitude": 3.2687448 }, "geometry": { "type": "Point", "coordinates": [ 3.2687448, 6.5529605 ] } },
{ "type": "Feature", "properties": { "Address": "8 Borno Street, Area 10, Garki, Abuja", "State": "FCT", "LGA": "Municipal Area Council", "Name": "ASD Motor", "google_map_url": "https://maps.google.com/?q=8+Borno+Street%2C+Area+10%2C+Garki%2C+Abuja+", "latitude": 9.038138, "longitude": 7.4813311 }, "geometry": { "type": "Point", "coordinates": [ 7.4813311, 9.038138 ] } },
{ "type": "Feature", "properties": { "Address": "AB 2, Nnamdi Azikiwe way Express Bye-Pass, Kaduna.", "State": "Kaduna", "LGA": "Kaduna South", "Name": "Kaura Motor", "google_map_url": "https://maps.google.com/?q=AB+2%2C+Nnamdi+Azikiwe+way+Express+Bye-Pass%2C+Kaduna.", "latitude": 10.5765323, "longitude": 7.4202949 }, "geometry": { "type": "Point", "coordinates": [ 7.4202949, 10.5765323 ] } },
{ "type": "Feature", "properties": { "Address": "59, Rasaq Balogun Street Western Avenue, Surulere", "State": "Lagos", "LGA": "Surulere", "Name": "Kojo Motors Lagos", "google_map_url": "https://maps.google.com/?q=59%2C+Rasaq+Balogun+Street+Western+Avenue%2C+Surulere", "latitude": 6.4929993, "longitude": 3.3616571 }, "geometry": { "type": "Point", "coordinates": [ 3.3616571, 6.4929993 ] } },
{ "type": "Feature", "properties": { "Address": "Plot 1209. Cadastral zone B06 Mabushi district, after VIO office Mabushi, Abuja", "State": "FCT", "LGA": "Municipal Area Council", "Name": "Kojo Motors Abuja", "google_map_url": "https://maps.google.com/?q=Plot+1209.+Cadastral+zone+B06+Mabushi+district%2C+after+VIO+office+Mabushi%2C+Abuja", "latitude": 9.1112394, "longitude": 7.4335455 }, "geometry": { "type": "Point", "coordinates": [ 7.4335455, 9.1112394 ] } },
{ "type": "Feature", "properties": { "Address": "Plot 581, Central Business District, Abuja", "State": "FCT", "LGA": "Abaji", "Name": "Honda Place", "google_map_url": "https://maps.google.com/?q=Plot+581%2C+Central+Business+District%2C+Abuja", "latitude": 9.0585927, "longitude": 7.4894131 }, "geometry": { "type": "Point", "coordinates": [ 7.4894131, 9.0585927 ] } },
{ "type": "Feature", "properties": { "Address": "Plot 388 Constitution Avenue, Beside Grand Square, Central Business District Abuja", "State": "FCT", "LGA": "Municipal Area Council", "Name": "Coscharis Motors", "google_map_url": "https://maps.google.com/?q=Plot+388+Constitution+Avenue%2C+Beside+Grand+Square%2C+Central+Business+District+Abuja+", "latitude": 9.0517211, "longitude": 7.478143 }, "geometry": { "type": "Point", "coordinates": [ 7.478143, 9.0517211 ] } },
{ "type": "Feature", "properties": { "Address": "Plot 596 Independence Avenue, Opp Bolingo Hotel, Central Business District, Abuja", "State": "FCT", "LGA": "Municipal Area Council", "Name": "Elizade Nigeria Limited", "google_map_url": "https://maps.google.com/?q=Plot+596+Independence+Avenue%2C+Opp+Bolingo+Hotel%2C+Central+Business+District%2C+Abuja", "latitude": 9.0439324, "longitude": 7.4785566 }, "geometry": { "type": "Point", "coordinates": [ 7.4785566, 9.0439324 ] } },
{ "type": "Feature", "properties": { "Address": "Plot 410 Obafemi Awolowo Way, opposite L.E.A primary School, Airport Junction Jabi.", "State": "FCT", "LGA": "Municipal Area Council", "Name": "Briscoe Auto", "google_map_url": "https://maps.google.com/?q=Plot+410+Obafemi+Awolowo+Way%2C+opposite+L.E.A+primary+School%2C+Airport+Junction+Jabi.", "latitude": 9.0640929, "longitude": 7.4122072 }, "geometry": { "type": "Point", "coordinates": [ 7.4122072, 9.0640929 ] } },
{ "type": "Feature", "properties": { "Address": "Plot 36 CAD Zone B08. after Mabushi Ultra Modern Market Jahi, Abuja", "State": "FCT", "LGA": "Municipal Area Council", "Name": "Nuts & Bolts Auto Services", "google_map_url": "https://maps.google.com/?q=Plot+36+CAD+Zone+B08.+after+Mabushi+Ultra+Modern+Market+Jahi%2C+Abuja", "latitude": 9.1068175, "longitude": 7.4476008 }, "geometry": { "type": "Point", "coordinates": [ 7.4476008, 9.1068175 ] } },
{ "type": "Feature", "properties": { "Address": "Plot 466 Amadu Bello Way, after Dominos pizza , Garki 2 Abuja.", "State": "FCT", "LGA": "Municipal Area Council", "Name": "Autoprince Technologies", "google_map_url": "https://maps.google.com/?q=Plot+466+Amadu+Bello+Way%2C+after+Dominos+pizza+%2C+Garki+2+Abuja.+", "latitude": 9.0294746, "longitude": 7.4924277 }, "geometry": { "type": "Point", "coordinates": [ 7.4924277, 9.0294746 ] } },
{ "type": "Feature", "properties": { "Address": "Plot 92 CAD Zone B15, near Mabushi Ultramodern Market, Katampe Rd, Jahi", "State": "FCT", "LGA": "Municipal Area Council", "Name": "Auto works", "google_map_url": "https://maps.google.com/?q=Plot+92+CAD+Zone+B15%2C+near+Mabushi+Ultramodern+Market%2C+Katampe+Rd%2C+Jahi+", "latitude": 9.1068175, "longitude": 7.4476008 }, "geometry": { "type": "Point", "coordinates": [ 7.4476008, 9.1068175 ] } },
{ "type": "Feature", "properties": { "Address": "28 Katampe road Jahi, Opposite Mabushi Ultra Modern Market Abuja", "State": "FCT", "LGA": "Municipal Area Council", "Name": "Autoprag Service Centre", "google_map_url": "https://maps.google.com/?q=28+Katampe+road+Jahi%2C+Opposite+Mabushi+Ultra+Modern+Market+Abuja", "latitude": 9.0931849, "longitude": 7.4422447 }, "geometry": { "type": "Point", "coordinates": [ 7.4422447, 9.0931849 ] } },
{ "type": "Feature", "properties": { "Address": "1074 Airport road, Opposite Major oil Jabi Abuja", "State": "FCT", "LGA": "Municipal Area Council", "Name": "Annapolis Auto Centre", "google_map_url": "https://maps.google.com/?q=1074+Airport+road%2C+Opposite+Major+oil+Jabi+Abuja", "latitude": 8.9645533, "longitude": 7.3478415 }, "geometry": { "type": "Point", "coordinates": [ 7.3478415, 8.9645533 ] } },
{ "type": "Feature", "properties": { "Address": "Plot 92, CAD Zone B15, Behind Mabushi Ultra Modern Market Katampe Road, Jahi", "State": "FCT", "LGA": "Municipal Area Council", "Name": "Autospa", "google_map_url": "https://maps.google.com/?q=Plot+92%2C+CAD+Zone+B15%2C+Behind+Mabushi+Ultra+Modern+Market+Katampe+Road%2C+Jahi+", "latitude": 9.1068175, "longitude": 7.4476008 }, "geometry": { "type": "Point", "coordinates": [ 7.4476008, 9.1068175 ] } },
{ "type": "Feature", "properties": { "Address": "Plot 28 Katampe Road, After Bon Hotel Jahi", "State": "FCT", "LGA": "Municipal Area Council", "Name": "Pro Car Ltd Abuja", "google_map_url": "https://maps.google.com/?q=Plot+28+Katampe+Road%2C+After+Bon+Hotel+Jahi", "latitude": 9.0931849, "longitude": 7.4422447 }, "geometry": { "type": "Point", "coordinates": [ 7.4422447, 9.0931849 ] } },
{ "type": "Feature", "properties": { "Address": "Plot 916 Abubakar Koko Ave, Opposite Stella Maris School, Life camp", "State": "FCT", "LGA": "Municipal Area Council", "Name": "SunRay Auto Place and Services", "google_map_url": "https://maps.google.com/?q=Plot+916+Abubakar+Koko+Ave%2C+Opposite+Stella+Maris+School%2C+Life+camp", "latitude": 9.0837633, "longitude": 7.3932406 }, "geometry": { "type": "Point", "coordinates": [ 7.3932406, 9.0837633 ] } },
{ "type": "Feature", "properties": { "Address": "Plot 1510, Kaura District By ICC/Summit Bible Church, behind Games Village, Abuja", "State": "FCT", "LGA": "Municipal Area Council", "Name": "Onground Auto care", "google_map_url": "https://maps.google.com/?q=Plot+1510%2C+Kaura+District+By+ICC%2FSummit+Bible+Church%2C+behind+Games+Village%2C+Abuja", "latitude": 9.0611272, "longitude": 7.4676995 }, "geometry": { "type": "Point", "coordinates": [ 7.4676995, 9.0611272 ] } },
{ "type": "Feature", "properties": { "Address": "68 Adetokunbo Ademola Crescent,opposite goodies, Wuse 2 Abuja.", "State": "FCT", "LGA": "Municipal Area Council", "Name": "Cadon Autos Limited", "google_map_url": "https://maps.google.com/?q=68+Adetokunbo+Ademola+Crescent%2Copposite+goodies%2C+Wuse+2+Abuja.", "latitude": 9.0709731, "longitude": 7.4881674 }, "geometry": { "type": "Point", "coordinates": [ 7.4881674, 9.0709731 ] } },
{ "type": "Feature", "properties": { "Address": "37 Olorunsogo , Abiola way , Abeokuta,", "State": "Ogun", "LGA": "Abeokuta", "Name": "Nextgen", "google_map_url": "https://maps.google.com/?q=37+Olorunsogo+%2C+Abiola+way+%2C+Abeokuta%2C", "latitude": 7.1570518, "longitude": 3.3679448 }, "geometry": { "type": "Point", "coordinates": [ 3.3679448, 7.1570518 ] } },
{ "type": "Feature", "properties": { "Address": "Ijokodo Retail Outlet, Poly Road, Ibadan, Oyo State", "State": "Oyo", "LGA": "Ibadan South-East", "Name": "Bovas Oyo", "google_map_url": "https://maps.google.com/?q=+Ijokodo+Retail+Outlet%2C+Poly+Road%2C+Ibadan%2C+Oyo+State", "latitude": 7.4286841, "longitude": 3.8956893 }, "geometry": { "type": "Point", "coordinates": [ 3.8956893, 7.4286841 ] } },
{ "type": "Feature", "properties": { "Address": "Akobo 1 Retail Outlet, Along Ojurin, Akala Estate, Akobo, Ibadan, Oyo State", "State": "Oyo", "LGA": "Ibadan North", "Name": "Bovas Oyo", "google_map_url": "https://maps.google.com/?q=Akobo+1+Retail+Outlet%2C+Along+Ojurin%2C+Akala+Estate%2C+Akobo%2C+Ibadan%2C+Oyo+State", "latitude": 7.4365064, "longitude": 3.9661577 }, "geometry": { "type": "Point", "coordinates": [ 3.9661577, 7.4365064 ] } },
{ "type": "Feature", "properties": { "Address": "Tanke Retail Outlet, Tanke Road, Ilorin, Kwara State", "State": "Kwara", "LGA": "Ilorin East", "Name": "Bovas Kwara", "google_map_url": "https://maps.google.com/?q=Tanke+Retail+Outlet%2C+Tanke+Road%2C+Ilorin%2C+Kwara+State", "latitude": 8.4841992, "longitude": 4.6075335 }, "geometry": { "type": "Point", "coordinates": [ 4.6075335, 8.4841992 ] } },
{ "type": "Feature", "properties": { "Address": "Yidi Retail Outlet, Yidi Road, Ilorin, Kwara State", "State": "Kwara", "LGA": "Ilorin East", "Name": "Bovas Kwara", "google_map_url": "https://maps.google.com/?q=Yidi+Retail+Outlet%2C+Yidi+Road%2C+Ilorin%2C+Kwara+State", "latitude": 8.5373356, "longitude": 4.5443923 }, "geometry": { "type": "Point", "coordinates": [ 4.5443923, 8.5373356 ] } },
{ "type": "Feature", "properties": { "Address": "Government Technical College, Epe", "State": "Lagos", "LGA": "Epe", "Name": "Ibile Oil & Gas - Lagos State Technical & Vocational Education Board", "google_map_url": "https://maps.google.com/?q=Government+Technical+College%2C+Epe+%0D%0A", "latitude": 6.5987664, "longitude": 3.9844744 }, "geometry": { "type": "Point", "coordinates": [ 3.9844744, 6.5987664 ] } },
{ "type": "Feature", "properties": { "Address": "Plot 136, Beside Mabushi Ultra Modern Market Jahi District Abuja", "State": "FCT", "LGA": "Municipal Area Council", "Name": "Yasin Express Logistics Ltd", "google_map_url": "https://maps.google.com/?q=Plot+136%2C+Beside+Mabushi+Ultra+Modern+Market+Jahi+District+Abuja", "latitude": 9.0932033, "longitude": 7.4429197 }, "geometry": { "type": "Point", "coordinates": [ 7.4429197, 9.0932033 ] } },
{ "type": "Feature", "properties": { "Address": "Building Beside Abdulsalam, Ajelanwa street, Ita Alamu, Along Ajase Ipo Road, Ilorin.", "State": "Kwara", "LGA": "Ilorin South", "Name": "Yasin Express Logistics Ltd", "google_map_url": "https://maps.google.com/?q=Building+Beside+Abdulsalam%2C+Ajelanwa+street%2C+Ita+Alamu%2C+Along+Ajase+Ipo+Road%2C+Ilorin.", "latitude": 8.2458715, "longitude": 4.8118909 }, "geometry": { "type": "Point", "coordinates": [ 4.8118909, 8.2458715 ] } },
{ "type": "Feature", "properties": { "Address": "8, Old Okene Kabba Road Opp Peelink Electroworld, Beside Union Bank, Lokoja", "State": "Kogi", "LGA": "Lokoja", "Name": "Automotive Gas Nigeria Services Limited (Autogas Nigeria) - Mosba PJ Global Limited", "google_map_url": "https://maps.google.com/?q=8%2C+Old+Okene+Kabba+Road+Opp+Peelink+Electroworld%2C+Beside+Union+Bank%2C+Lokoja%0D%0A", "latitude": 7.8023204, "longitude": 6.733343 }, "geometry": { "type": "Point", "coordinates": [ 6.733343, 7.8023204 ] } },
{ "type": "Feature", "properties": { "Address": "Lokoja - Okene Express way , Lokoja, Kogi State", "State": "Kogi", "LGA": "Lokoja", "Name": "Lokoja Mega Terminal", "google_map_url": "https://maps.google.com/?q=Lokoja+-+Okene+Express+way+%2C+Lokoja%2C+Kogi+State%0D%0A%0D%0A", "latitude": 7.8023204, "longitude": 6.733343 }, "geometry": { "type": "Point", "coordinates": [ 6.733343, 7.8023204 ] } },
{ "type": "Feature", "properties": { "Address": "P7F5+24G, Ifaki Road, Iworoko 362103, Opposite Broadcastiong Service of  Ekiti State Headquaters, Ekiti State", "State": "Ekiti", "LGA": "Ado Ekiti", "Name": "ABG Oil and Gas Limited Ekiti", "google_map_url": "https://maps.google.com/?q=P7F5%2B24G%2C+Ifaki+Road%2C+Iworoko+362103%2C+Opposite+Broadcastiong+Service+of++Ekiti+State+Headquaters%2C+Ekiti+State%0D%0A", "latitude": null, "longitude": null }, "geometry": null },
{ "type": "Feature", "properties": { "Address": "Ado-Ekiti/Km5 Ilawe Road, Near Fresh Water International School, Ado Ekiti", "State": "Ekiti", "LGA": "Ado Ekiti", "Name": "National Automotive Design and Development Council Automotive Training Centre - Ado Ekiti", "google_map_url": "https://maps.google.com/?q=Ado-Ekiti%2FKm5+Ilawe+Road%2C+Near+Fresh+Water+International+School%2C+Ado+Ekiti%0D%0A", "latitude": 7.6185974, "longitude": 5.2004966 }, "geometry": { "type": "Point", "coordinates": [ 5.2004966, 7.6185974 ] } },
{ "type": "Feature", "properties": { "Address": "Sedakay filling station, Opposite RRS Basiri Road, Ado Ekiti", "State": "Ekiti", "LGA": "Ado Ekiti", "Name": "Femoyor Auto Service", "google_map_url": "https://maps.google.com/?q=Sedakay+filling+station%2C+Opposite+RRS+Basiri+Road%2C+Ado+Ekiti%0D%0A", "latitude": 7.6454394, "longitude": 5.2072349 }, "geometry": { "type": "Point", "coordinates": [ 5.2072349, 7.6454394 ] } },
{ "type": "Feature", "properties": { "Address": "Block B, Plot 22, Egbewa GRA Extension, NTA Road, Ado - Ekiti, Ekiti State", "State": "Ekiti", "LGA": "Ado Ekiti", "Name": "Bengine Universal Nigeria Limited", "google_map_url": "https://maps.google.com/?q=Block+B%2C+Plot+22%2C+Egbewa+GRA+Extension%2C+NTA+Road%2C+Ado+-+Ekiti%2C+Ekiti+State", "latitude": 7.6219298, "longitude": 5.199751 }, "geometry": { "type": "Point", "coordinates": [ 5.199751, 7.6219298 ] } },
{ "type": "Feature", "properties": { "Address": "Bovas Ado 3 retail outlet, Poly road, Ado, Ekiti State.", "State": "Ekiti", "LGA": "Ado Ekiti", "Name": "Bovas", "google_map_url": "https://maps.google.com/?q=Bovas+Ado+3+retail+outlet%2C+Poly+road%2C+Ado%2C+Ekiti+State.%0D%0A", "latitude": 7.6124263, "longitude": 5.2371087 }, "geometry": { "type": "Point", "coordinates": [ 5.2371087, 7.6124263 ] } },
{ "type": "Feature", "properties": { "Address": "Afe Babalola University Road, Ado Ekiti, Ekiti", "State": "Ekiti", "LGA": "Ado Ekiti", "Name": "Modail Oil & Gas Ltsd", "google_map_url": "https://maps.google.com/?q=Afe+Babalola+University+Road%2C+Ado+Ekiti%2C+Ekiti%0D%0A", "latitude": 7.6708843, "longitude": 5.3070996 }, "geometry": { "type": "Point", "coordinates": [ 5.3070996, 7.6708843 ] } },
{ "type": "Feature", "properties": { "Address": "Km 1, Agbado Riad Ode-Ekiti, Ekiti", "State": "Ekiti", "LGA": "Ado Ekiti", "Name": "Baseline Petroleum & Chemical Company Nig Ltd", "google_map_url": "https://maps.google.com/?q=Km+1%2C+Agbado+Riad+Ode-Ekiti%2C+Ekiti%0D%0A", "latitude": 7.7189862, "longitude": 5.3109505 }, "geometry": { "type": "Point", "coordinates": [ 5.3109505, 7.7189862 ] } },
{ "type": "Feature", "properties": { "Address": "Afdin Filling Station, Nnamdi Azikiwe Expressway, Katampe", "State": "FCT", "LGA": "Municipal Area Council", "Name": "ABG Oil and Gas Limited Katampe", "google_map_url": "https://maps.google.com/?q=Afdin+Filling+Station%2C+Nnamdi+Azikiwe+Expressway%2C+Katampe%0D%0A", "latitude": 9.0983573, "longitude": 7.4715667 }, "geometry": { "type": "Point", "coordinates": [ 7.4715667, 9.0983573 ] } },
{ "type": "Feature", "properties": { "Address": "4/6 Kudirat Abiola Way, Alausa, Ikeja, Lagos", "State": "Lagos", "LGA": "Ikeja", "Name": "Verde Dynamo", "google_map_url": "https://maps.google.com/?q=4%2F6+Kudirat+Abiola+Way%2C+Alausa%2C+Ikeja%2C+Lagos+%0D%0A", "latitude": 6.5891109, "longitude": 3.3778899 }, "geometry": { "type": "Point", "coordinates": [ 3.3778899, 6.5891109 ] } },
{ "type": "Feature", "properties": { "Address": "Deidei – Zuba Expressway, Abuja Municipal Area Council, Abuja - FCT", "State": "FCT", "LGA": "Municipal Area Council", "Name": "Techsavvy Consult Limited", "google_map_url": "https://maps.google.com/?q=Deidei+%E2%80%93+Zuba+Expressway%2C+Abuja+Municipal+Area+Council%2C+Abuja+-+FCT%0D%0A", "latitude": null, "longitude": null }, "geometry": null },
{ "type": "Feature", "properties": { "Address": "Plot 36, Itam Industrial Layout, Uyo, AKTC Terminal, Akwa Ibom State", "State": "Akwa Ibom", "LGA": "Abak", "Name": "Nsik Oil and Gas Company Limited", "google_map_url": "https://maps.google.com/?q=Plot+36%2C+Itam+Industrial+Layout%2C+Uyo%2C+AKTC+Terminal%2C+Akwa+Ibom+State", "latitude": 5.045918, "longitude": 7.9090631 }, "geometry": { "type": "Point", "coordinates": [ 7.9090631, 5.045918 ] } },
{ "type": "Feature", "properties": { "Address": "KM 4, Uyo - Abak Road, Uyo, Akwa Ibom State", "State": "Akwa Ibom", "LGA": "Uyo", "Name": "Standard Institute of Technology", "google_map_url": "https://maps.google.com/?q=KM+4%2C+Uyo+-+Abak+Road%2C+Uyo%2C+Akwa+Ibom+State", "latitude": 5.0199802, "longitude": 7.8881601 }, "geometry": { "type": "Point", "coordinates": [ 7.8881601, 5.0199802 ] } },
{ "type": "Feature", "properties": { "Address": "KM 12, Airport Road, Ifa Ikot Akpan Etoi Uyo, Akwa Ibom State", "State": "Akwa Ibom", "LGA": "Uyo", "Name": "Absolute Project Global Energy Ltd", "google_map_url": "https://maps.google.com/?q=KM+12%2C+Airport+Road%2C+Ifa+Ikot+Akpan+Etoi+Uyo%2C+Akwa+Ibom+State+", "latitude": 4.9976239, "longitude": 7.9051567 }, "geometry": { "type": "Point", "coordinates": [ 7.9051567, 4.9976239 ] } },
{ "type": "Feature", "properties": { "Address": "Airport Road, Benin, Edo State", "State": "Edo", "LGA": "Akoko-Edo", "Name": "Blue Stone Gas and Power Limited Edo", "google_map_url": "https://maps.google.com/?q=Airport+Road%2C+Benin%2C+Edo+State+", "latitude": 6.2890664, "longitude": 5.585405 }, "geometry": { "type": "Point", "coordinates": [ 5.585405, 6.2890664 ] } },
{ "type": "Feature", "properties": { "Address": "Cross River State Fabrication Academy, Calabar", "State": "Cross River", "LGA": "Calabar Municipal", "Name": "Blue Stone Gas and Power Limited Cross-River", "google_map_url": "https://maps.google.com/?q=Cross+River+State+Fabrication+Academy%2C+Calabar++", "latitude": 4.9757165, "longitude": 8.3417006 }, "geometry": { "type": "Point", "coordinates": [ 8.3417006, 4.9757165 ] } },
{ "type": "Feature", "properties": { "Address": "Government Technical College, Ikorodu", "State": "Lagos", "LGA": "Ikorodu", "Name": "Ibile Oil & Gas - Lagos State Technical & Vocational Education Board", "google_map_url": "https://maps.google.com/?q=Government+Technical+College%2C+Ikorodu+%0D%0A", "latitude": 6.6176954, "longitude": 3.5177203 }, "geometry": { "type": "Point", "coordinates": [ 3.5177203, 6.6176954 ] } },
{ "type": "Feature", "properties": { "Address": "Government technical College, Ado-Soba", "State": "Lagos", "LGA": "Amuwo-Odofin", "Name": "Ibile Oil & Gas - Lagos State Technical & Vocational Education Board", "google_map_url": "https://maps.google.com/?q=Government+technical+College%2C+Ado-Soba%0D%0A", "latitude": 6.4582519, "longitude": 3.2580449 }, "geometry": { "type": "Point", "coordinates": [ 3.2580449, 6.4582519 ] } },
{ "type": "Feature", "properties": { "Address": "Opp Plantation City, Opete Road by Otokutu Junction DSC Expressway, Ughelli-South", "State": "Delta", "LGA": "Ughelli South", "Name": "Automotive Gas Nigeria Services Limited (Autogas Nigeria) - Floritech Motors", "google_map_url": "https://maps.google.com/?q=Opp+Plantation+City%2C+Opete+Road+by+Otokutu+Junction+DSC+Expressway%2C+Ughelli-South%0D%0A", "latitude": 5.4913722, "longitude": 6.0175291 }, "geometry": { "type": "Point", "coordinates": [ 6.0175291, 5.4913722 ] } },
{ "type": "Feature", "properties": { "Address": "NO 480 Upper Sakpoba Road, Off Sapele, By Adesuwa Junction Benin City, Edo State", "State": "Edo", "LGA": "Akoko-Edo", "Name": "Negus Energy And Engineering Services Limited, Edo", "google_map_url": "https://maps.google.com/?q=NO+480+Upper+Sakpoba+Road%2C+Off+Sapele%2C+By+Adesuwa+Junction+Benin+City%2C+Edo+State", "latitude": 6.3732965, "longitude": 5.6341116 }, "geometry": { "type": "Point", "coordinates": [ 5.6341116, 6.3732965 ] } },
{ "type": "Feature", "properties": { "Address": "NO. 3 Agric Road, Efugrin GRA, Warri, Delta State.", "State": "Delta", "LGA": "Aniocha North", "Name": "Negus Energy And Engineering Services Limited, Delta", "google_map_url": "https://maps.google.com/?q=NO.+3+Agric+Road%2C+Efugrin+GRA%2C+Warri%2C+Delta+State.%0D%0A", "latitude": 5.5105798, "longitude": 5.7326149 }, "geometry": { "type": "Point", "coordinates": [ 5.7326149, 5.5105798 ] } },
{ "type": "Feature", "properties": { "Address": "Along Ikotun-Ijegun Road, Alimosho LGA, Ikotun Lagos", "State": "Lagos", "LGA": "Alimosho", "Name": "Mide Premium Oil & Gas LTD", "google_map_url": "https://maps.google.com/?q=Along+Ikotun-Ijegun+Road%2C+Alimosho+LGA%2C+Ikotun+Lagos%0D%0A", "latitude": 6.5334473, "longitude": 3.2598446 }, "geometry": { "type": "Point", "coordinates": [ 3.2598446, 6.5334473 ] } },
{ "type": "Feature", "properties": { "Address": "Ilorin Office, Asa Dam Road, Ilorin, Kwara State", "State": "Kwara", "LGA": "Ilorin South", "Name": "Lanre Shittu Motors NG LTD", "google_map_url": "https://maps.google.com/?q=Ilorin+Office%2C+Asa+Dam+Road%2C+Ilorin%2C+Kwara+State%0D%0A", "latitude": 8.4509728, "longitude": 4.5495995 }, "geometry": { "type": "Point", "coordinates": [ 4.5495995, 8.4509728 ] } },
{ "type": "Feature", "properties": { "Address": "Plot 1110, Zone A00, Central Business Area, Beside NNRA, Adjacent Environment House, Abuja, FCT.", "State": "FCT", "LGA": "Municipal Area Council", "Name": "Kaura Motors Nigeria Limited", "google_map_url": "https://maps.google.com/?q=Plot+1110%2C+Zone+A00%2C+Central+Business+Area%2C+Beside+NNRA%2C+Adjacent+Environment+House%2C+Abuja%2C+FCT.%0D%0A", "latitude": 9.0585927, "longitude": 7.4894131 }, "geometry": { "type": "Point", "coordinates": [ 7.4894131, 9.0585927 ] } },
{ "type": "Feature", "properties": { "Address": "Km43 Lekki - Epe Express , Olokonla Ajah. Lagos", "State": "Lagos", "LGA": "Epe", "Name": "Paradigm Creations Limited", "google_map_url": "https://maps.google.com/?q=Km43+Lekki+-+Epe+Express+%2C+Olokonla+Ajah.+Lagos%0D%0A", "latitude": 6.4645874, "longitude": 3.5725244 }, "geometry": { "type": "Point", "coordinates": [ 3.5725244, 6.4645874 ] } },
{ "type": "Feature", "properties": { "Address": "Igando Oloja, Ibeju Lekki, Lagos", "State": "Lagos", "LGA": "Ibeju-Lekki", "Name": "Cowerie Global Company Limited", "google_map_url": "https://maps.google.com/?q=Igando+Oloja%2C+Ibeju+Lekki%2C+Lagos%0D%0A", "latitude": 6.4740538, "longitude": 3.8056763 }, "geometry": { "type": "Point", "coordinates": [ 3.8056763, 6.4740538 ] } },
{ "type": "Feature", "properties": { "Address": "Plot 501, Idu Industrial Layout, Idu Yard, Abuja", "State": "FCT", "LGA": "Municipal Area Council", "Name": "Hartplan Nigeria Limited", "google_map_url": "https://maps.google.com/?q=Plot+501%2C+Idu+Industrial+Layout%2C+Idu+Yard%2C+Abuja", "latitude": 9.0609922, "longitude": 7.3382558 }, "geometry": { "type": "Point", "coordinates": [ 7.3382558, 9.0609922 ] } },
{ "type": "Feature", "properties": { "Address": "Filling Station Opposite ATTEC shopping mall by Custom Barrack Junction, Gudaba, kuje, FCT Abuja", "State": "FCT", "LGA": "Municipal Area Council", "Name": "D.D Hi-Tech Auto & CNG Solutions", "google_map_url": "https://maps.google.com/?q=Filling+Station+Opposite+ATTEC+shopping+mall+by+Custom+Barrack+Junction%2C+Gudaba%2C+kuje%2C+FCT+Abuja", "latitude": 8.8821438, "longitude": 7.2275336 }, "geometry": { "type": "Point", "coordinates": [ 7.2275336, 8.8821438 ] } },
{ "type": "Feature", "properties": { "Address": "Plot 964 Lugbe Extention, Airport Road, Lugbe Abuja", "State": "FCT", "LGA": "Municipal Area Council", "Name": "Baseline + Johnson Nig Ltd", "google_map_url": "https://maps.google.com/?q=Plot+964+Lugbe+Extention%2C+Airport+Road%2C+Lugbe+Abuja", "latitude": 8.9752697, "longitude": 7.3522126 }, "geometry": { "type": "Point", "coordinates": [ 7.3522126, 8.9752697 ] } },
{ "type": "Feature", "properties": { "Address": "Saddi Kemil Petrol Station, Opposite ShopRite Lugbe, Abuja", "State": "FCT", "LGA": "Municipal Area Council", "Name": "Afriks Limited", "google_map_url": "https://maps.google.com/?q=Saddi+Kemil+Petrol+Station%2C+Opposite+ShopRite+Lugbe%2C+Abuja", "latitude": 8.9870353, "longitude": 7.3927514 }, "geometry": { "type": "Point", "coordinates": [ 7.3927514, 8.9870353 ] } },
{ "type": "Feature", "properties": { "Address": "Ibwas Oil and Gas, Along Kubwa Express Road ,Abuja.", "State": "FCT", "LGA": "Municipal Area Council", "Name": "Engage Empower Educate Initiative", "google_map_url": "https://maps.google.com/?q=Ibwas+Oil+and+Gas%2C+Along+Kubwa+Express+Road+%2CAbuja.", "latitude": 9.1394997, "longitude": 7.3030456 }, "geometry": { "type": "Point", "coordinates": [ 7.3030456, 9.1394997 ] } },
{ "type": "Feature", "properties": { "Address": "MRS Filling Station, Bodija Market, Bodija, Ibadan North West, Ibadan, Oyo State, Nigeria", "State": "Oyo", "LGA": "Ibarapa North", "Name": "Ecogreen Tech Renewable Energy", "google_map_url": "https://maps.google.com/?q=MRS+Filling+Station%2C+Bodija+Market%2C+Bodija%2C+Ibadan+North+West%2C+Ibadan%2C+Oyo+State%2C+Nigeria", "latitude": 7.3996904, "longitude": 3.8896818 }, "geometry": { "type": "Point", "coordinates": [ 3.8896818, 7.3996904 ] } },
{ "type": "Feature", "properties": { "Address": "57 Ziks Avenue Uwani Enugu State", "State": "Enugu", "LGA": "Enugu North", "Name": "Ceedac Consulting Ltd", "google_map_url": "https://maps.google.com/?q=57+Ziks+Avenue+Uwani+Enugu+State", "latitude": 6.4273094, "longitude": 7.4929647 }, "geometry": { "type": "Point", "coordinates": [ 7.4929647, 6.4273094 ] } },
{ "type": "Feature", "properties": { "Address": "Amatua Global Filling Station, NO.31 Idoro Road Uyo, Akwa Ibom State", "State": "Akwa Ibom", "LGA": "Uyo", "Name": "Ceedac Consulting Ltd", "google_map_url": "https://maps.google.com/?q=Amatua+Global+Filling+Station%2C+NO.31+Idoro+Road+Uyo%2C+Akwa+Ibom+State+", "latitude": 5.0383143, "longitude": 7.8856958 }, "geometry": { "type": "Point", "coordinates": [ 7.8856958, 5.0383143 ] } },
{ "type": "Feature", "properties": { "Address": "KM 13, Atta Hampet Junction Ibeku Umuahia Abia State", "State": "Abia", "LGA": "Umuahia North", "Name": "Ceedac Consulting Ltd", "google_map_url": "https://maps.google.com/?q=KM+13%2C+Atta+Hampet+Junction+Ibeku+Umuahia+Abia+State", "latitude": 5.5249526, "longitude": 7.4922407 }, "geometry": { "type": "Point", "coordinates": [ 7.4922407, 5.5249526 ] } },
{ "type": "Feature", "properties": { "Address": "NO. 38 Ogoja Road Abakaliki, Ebonyi State", "State": "Ebonyi", "LGA": "Abakaliki", "Name": "Ceedac Consulting Ltd", "google_map_url": "https://maps.google.com/?q=NO.+38+Ogoja+Road+Abakaliki%2C+Ebonyi+State", "latitude": 6.3180277, "longitude": 8.1148859 }, "geometry": { "type": "Point", "coordinates": [ 8.1148859, 6.3180277 ] } },
{ "type": "Feature", "properties": { "Address": "Sango Eleyele Express road, Arometa bus-stop", "State": "Oyo", "LGA": "Afijio", "Name": "Motor Genius Car Repair Limited", "google_map_url": "https://maps.google.com/?q=Sango+Eleyele+Express+road%2C+Arometa+bus-stop", "latitude": 7.4202256, "longitude": 3.8748216 }, "geometry": { "type": "Point", "coordinates": [ 3.8748216, 7.4202256 ] } },
{ "type": "Feature", "properties": { "Address": "Luftreiber Automobile, Plot 125, Ahmadu Bello Way, Opp Rano Air, Jahi, Abuja", "State": "FCT", "LGA": "Municipal Area Council", "Name": "Luftreiber Automobile", "google_map_url": "https://maps.google.com/?q=Luftreiber+Automobile%2C+Plot+125%2C+Ahmadu+Bello+Way%2C+Opp+Rano+Air%2C+Jahi%2C+Abuja", "latitude": 9.086444, "longitude": 7.443289 }, "geometry": { "type": "Point", "coordinates": [ 7.443289, 9.086444 ] } },
{ "type": "Feature", "properties": { "Address": "135 Refinery Road, KM3, Opposite Navy Air Base Station, Effurun, Uvwie, Delta State", "State": "Delta", "LGA": "Uvwie", "Name": "Dandani Gas Limited", "google_map_url": "https://maps.google.com/?q=135+Refinery+Road%2C+KM3%2C+Opposite+Navy+Air+Base+Station%2C+Effurun%2C+Uvwie%2C+Delta+State", "latitude": 5.5692668, "longitude": 5.7449932 }, "geometry": { "type": "Point", "coordinates": [ 5.7449932, 5.5692668 ] } },
{ "type": "Feature", "properties": { "Address": "18, Old Site Mechanic Village, Asaba, Delta State", "State": "Delta", "LGA": "Aniocha South", "Name": "Negus Energy and Engineering Services Limited", "google_map_url": "https://maps.google.com/?q=18%2C+Old+Site+Mechanic+Village%2C+Asaba%2C+Delta+State", "latitude": 6.2059295, "longitude": 6.6958939 }, "geometry": { "type": "Point", "coordinates": [ 6.6958939, 6.2059295 ] } },
{ "type": "Feature", "properties": { "Address": "NO 1, Gulf Club Cross Road, Al-Mansur Motors Marafa Kaduna, Kaduna State.", "State": "Kaduna", "LGA": "Kaduna North", "Name": "Attayseer Autogas Nig Ltd", "google_map_url": "https://maps.google.com/?q=NO+1%2C+Gulf+Club+Cross+Road%2C+Al-Mansur+Motors+Marafa+Kaduna%2C+Kaduna+State.+", "latitude": 10.5211229, "longitude": 7.4464632 }, "geometry": { "type": "Point", "coordinates": [ 7.4464632, 10.5211229 ] } },
{ "type": "Feature", "properties": { "Address": "Arish Mall Zuba Opposite Enyo Filling Station Along Kaduna Expressway, Abuja", "State": "FCT", "LGA": "Municipal Area Council", "Name": "Hi-Grade Energies Limited", "google_map_url": "https://maps.google.com/?q=Arish+Mall+Zuba+Opposite+Enyo+Filling+Station+Along+Kaduna+Expressway%2C+Abuja%0D%0A", "latitude": 9.1149032, "longitude": 7.4735531 }, "geometry": { "type": "Point", "coordinates": [ 7.4735531, 9.1149032 ] } },
{ "type": "Feature", "properties": { "Address": "NO 17 Nnamdi Azikwe Express Bye-pass, Kurmi Mashi, Kaduna", "State": "Kaduna", "LGA": "Kaduna South", "Name": "Yasin Express Logistics Limited", "google_map_url": "https://maps.google.com/?q=NO+17+Nnamdi+Azikwe+Express+Bye-pass%2C+Kurmi+Mashi%2C+Kaduna", "latitude": 10.5764761, "longitude": 7.4202588 }, "geometry": { "type": "Point", "coordinates": [ 7.4202588, 10.5764761 ] } }
]
}
